,address,area,city,detail,children,comment_num,detail_url,groupon_num,lat,lng,overall_rating,tag,type,lat,lng,name,province,street_id,telephone,uid
0,山东省青岛市市南区文登路28号,市南区,青岛市,1,[],100,http://api.map.baidu.com/place/detail?uid=61f634f6233ddb796b49f317&output=html&source=placeapi_v2,,36.067228236397,120.35682921562,4.1,旅游景点;公园,scope,36.070634,120.357364,青岛中山公园,山东省,61f634f6233ddb796b49f317,(0532)82870564,61f634f6233ddb796b49f317
1,山东省青岛市崂山区东海东路60号,崂山区,青岛市,1,[],100,http://api.map.baidu.com/place/detail?uid=987573fcf31545e54d2fdfdd&output=html&source=placeapi_v2,,36.075532474175,120.44684926865,3.9,旅游景点;水族馆,scope,36.075157,120.449285,青岛海昌极地海洋世界,山东省,987573fcf31545e54d2fdfdd,"(0532)89091819,(0532)85909999",987573fcf31545e54d2fdfdd
2,山东省青岛市黄岛区珠山风景区青岛森林野生动物世界,黄岛区,青岛市,1,[],100,http://api.map.baidu.com/place/detail?uid=e2562cc6933366262102206e&output=html&source=placeapi_v2,2,35.989818539925,120.06625182064,4.5,旅游景点;景点,scope,35.987489,120.064908,野生动物园,山东省,,(0532)86835555,e2562cc6933366262102206e
3,青岛市市南区龙山路16号甲,市南区,青岛市,1,[],100,http://api.map.baidu.com/place/detail?uid=93df0dc361c15c32882fb5cc&output=html&source=placeapi_v2,,36.071925850051,120.33637383258,4.0,旅游景点;公园,scope,36.072566,120.337993,信号山公园,山东省,93df0dc361c15c32882fb5cc,(0532)82798055,93df0dc361c15c32882fb5cc
4,山东省青岛市黄岛区漓江西路666号,黄岛区,青岛市,1,[],39,http://api.map.baidu.com/place/detail?uid=c3aab3ea072e1844912ca339&output=html&source=placeapi_v2,,35.954819654932,120.20990003081,4.7,旅游景点;其他,scope,35.953722,120.214328,唐岛湾,山东省,c3aab3ea072e1844912ca339,,c3aab3ea072e1844912ca339
5,山东省青岛市市南区珠海支路(奥帆中心东部市立医院),市南区,青岛市,1,[],32,http://api.map.baidu.com/place/detail?uid=e56e9ce0a92b4fc39e82ead1&output=html&source=placeapi_v2,,36.062039032398,120.41162134493,4.8,旅游景点;公园,scope,36.061247,120.412219,燕儿岛山公园,山东省,e56e9ce0a92b4fc39e82ead1,,e56e9ce0a92b4fc39e82ead1
6,青岛市市南区延安一路102号,市南区,青岛市,1,[],46,http://api.map.baidu.com/place/detail?uid=593850fb6e113f5cdf1e52f6&output=html&source=placeapi_v2,,36.077888419528,120.35851495328,4.5,旅游景点;动物园,scope,36.076061,120.355964,青岛动物园,山东省,593850fb6e113f5cdf1e52f6,,593850fb6e113f5cdf1e52f6
7,青岛市市南区福山支路24号,市南区,青岛市,1,[],23,http://api.map.baidu.com/place/detail?uid=96b672aa809e7074ce04ef17&output=html&source=placeapi_v2,,36.064273609561,120.34305824605,4.5,旅游景点;公园,scope,36.064961,120.342928,小鱼山公园,山东省,96b672aa809e7074ce04ef17,(0532)82868532,96b672aa809e7074ce04ef17
8,山东省青岛市城阳区兴阳路318号,城阳区,青岛市,1,[],26,http://api.map.baidu.com/place/detail?uid=b05732acfa667389018972c0&output=html&source=placeapi_v2,,36.292403840596,120.407260166,4.4,旅游景点;风景区,scope,36.291942,120.401812,青岛奥林匹克雕塑文化园,山东省,b05732acfa667389018972c0,(0532)87759871,b05732acfa667389018972c0
9,兴华路33号,李沧区,青岛市,1,[],25,http://api.map.baidu.com/place/detail?uid=5b25f44666b358eb10293535&output=html&source=placeapi_v2,,36.191175697254,120.3963701682,4.1,旅游景点;公园,scope,36.191082,120.395277,沧口公园,山东省,5b25f44666b358eb10293535,,5b25f44666b358eb10293535
10,青岛市城阳区正阳路1号,城阳区,青岛市,1,[],21,http://api.map.baidu.com/place/detail?uid=a2e0c096c3a683ce283a9f5f&output=html&source=placeapi_v2,,36.311147848563,120.44964720016,4.6,旅游景点;公园,scope,36.312616,120.448968,国学公园,山东省,a2e0c096c3a683ce283a9f5f,,a2e0c096c3a683ce283a9f5f
11,青岛市市北区四流南路7号,市北区,青岛市,1,[],100,http://api.map.baidu.com/place/detail?uid=251374c99036fe3ea11de9d7&output=html&source=placeapi_v2,,36.129377868197,120.37228877048,4.2,旅游景点;公园,scope,36.125833,120.377154,青岛北岭山森林公园,山东省,251374c99036fe3ea11de9d7,(0532)84851988,251374c99036fe3ea11de9d7
12,山东省青岛市胶州市香港路1号,胶州市,青岛市,1,[],67,http://api.map.baidu.com/place/detail?uid=4aeb07bf7899269f276e985e&output=html&source=placeapi_v2,,36.256842517077,120.08997607814,4.4,旅游景点;公园,scope,36.262567,120.099788,少海湿地公园,山东省,a8e9835d2e1c9466b04c497a,(0532)85269929,4aeb07bf7899269f276e985e
13,青岛市黄岛区珠海南路2号,黄岛区,青岛市,1,[],34,http://api.map.baidu.com/place/detail?uid=72e57fd7542825b6f9dc8583&output=html&source=placeapi_v2,,35.876235026216,119.99456577613,4.4,旅游景点;公园,scope,35.87405,119.993756,双珠公园,山东省,72e57fd7542825b6f9dc8583,(0532)86616650,72e57fd7542825b6f9dc8583
14,市南区湛山五路1号,市南区,青岛市,1,[],19,http://api.map.baidu.com/place/detail?uid=72aa2513d0443746077ce817&output=html&source=placeapi_v2,,36.050895530196,120.37147151009,4.8,旅游景点;其他,scope,36.049049,120.370079,太平角,山东省,72aa2513d0443746077ce817,,72aa2513d0443746077ce817
15,山东省青岛市市南区郧阳路7号,市南区,青岛市,1,[],9,http://api.map.baidu.com/place/detail?uid=c0cde50bd6ffad6f59bbbcfd&output=html&source=placeapi_v2,,36.068316679211,120.36913196322,4.7,旅游景点;植物园,scope,36.072218,120.365604,青岛植物园,山东省,c0cde50bd6ffad6f59bbbcfd,"(0532)83861179,(0532)83897907",c0cde50bd6ffad6f59bbbcfd
16,山东省青岛市崂山区山东头路38,崂山区,青岛市,1,[],,http://api.map.baidu.com/place/detail?uid=c1fc25c929df696b9e9d686c&output=html&source=placeapi_v2,,36.104185862909,120.46149130711,,旅游景点;公园,scope,36.104482,120.461583,创客公园,山东省,c1fc25c929df696b9e9d686c,,c1fc25c929df696b9e9d686c
17,山东省青岛市李沧区竹子庵公园(天水路北),李沧区,青岛市,1,[],11,http://api.map.baidu.com/place/detail?uid=dd610c27ac48e95d9e95def8&output=html&source=placeapi_v2,,36.209091757397,120.48706067604,4.8,旅游景点;公园,scope,36.210345,120.487833,竹子庵公园,山东省,dd610c27ac48e95d9e95def8,,dd610c27ac48e95d9e95def8
18,厦门路2号,胶州市,青岛市,1,[],17,http://api.map.baidu.com/place/detail?uid=85369400eb966eb09c09f7e3&output=html&source=placeapi_v2,,36.264994872829,120.04026719921,4.6,旅游景点;风景区,scope,36.266357,120.041434,三里河公园,山东省,85369400eb966eb09c09f7e3,,85369400eb966eb09c09f7e3
19,山东省青岛市即墨区正心大道,即墨区,青岛市,1,[],3,http://api.map.baidu.com/place/detail?uid=9fdfdb30782af6cda4c7562c&output=html&source=placeapi_v2,,,,5.0,旅游景点;公园,scope,36.385709,120.698609,滨海公园,山东省,,,9fdfdb30782af6cda4c7562c
,address,area,city,detail,children,comment_num,detail_url,lat,lng,overall_rating,price,tag,type,lat,lng,name,province,street_id,telephone,uid
0,太平路12号,市南区,青岛市,1,[],100,http://api.map.baidu.com/place/detail?uid=0b5d5a0fb93f76ee08a8d445&output=html&source=placeapi_v2,36.068062547969,120.3242009548,4.5,,旅游景点;公园,scope,36.067332,120.325857,栈桥公园,山东省,0b5d5a0fb93f76ee08a8d445,(0532)82884548,0b5d5a0fb93f76ee08a8d445
1,青岛市黄岛区武夷山路574号,黄岛区,青岛市,1,[],24,http://api.map.baidu.com/place/detail?uid=bba87388858967a1bca8226c&output=html&source=placeapi_v2,35.97210009006,120.19407387208,4.3,,旅游景点;公园,scope,35.970277,120.193637,马濠公园,山东省,bba87388858967a1bca8226c,,bba87388858967a1bca8226c
2,青岛市城阳区白沙河路299号城市阳光花园9-2-101,城阳区,青岛市,1,[],6,http://api.map.baidu.com/place/detail?uid=ee170aba7eef1aa3db1318f8&output=html&source=placeapi_v2,36.274044504767,120.42613385132,4.8,,旅游景点;公园,scope,36.274006,120.427997,白沙河运动公园,山东省,ee170aba7eef1aa3db1318f8,,ee170aba7eef1aa3db1318f8
3,烟青路557号,即墨区,青岛市,1,[],23,http://api.map.baidu.com/place/detail?uid=eb367503538ce71a00ec012b&output=html&source=placeapi_v2,36.390603322525,120.45835384127,4.1,,旅游景点;公园,scope,36.39093,120.457258,墨河公园,山东省,eb367503538ce71a00ec012b,(0532)88512892,eb367503538ce71a00ec012b
4,贵州路1,市南区,青岛市,1,[],9,http://api.map.baidu.com/place/detail?uid=79857b696afc2ab4f603b898&output=html&source=placeapi_v2,36.060466298217,120.3156534063,3.9,,旅游景点;其他,scope,36.059245,120.316143,八大峡,山东省,79857b696afc2ab4f603b898,,79857b696afc2ab4f603b898
5,青岛市莱西市文化路17号,莱西市,青岛市,1,[],37,http://api.map.baidu.com/place/detail?uid=db8fd3b349eb15d72fb17ee5&output=html&source=placeapi_v2,36.861601530952,120.53426442346,4.1,,旅游景点;公园,scope,36.864926,120.535245,月湖公园,山东省,db8fd3b349eb15d72fb17ee5,(0532)88485388,db8fd3b349eb15d72fb17ee5
6,山东省青岛市城阳区华中路6号,城阳区,青岛市,1,[],11,http://api.map.baidu.com/place/detail?uid=f110788c4c35cdad14948e07&output=html&source=placeapi_v2,36.276436336737,120.30099525403,4.8,,旅游景点;公园,scope,36.276407,120.302075,中国·青岛澜湾艺术公园,山东省,f110788c4c35cdad14948e07,(0532)68012163,f110788c4c35cdad14948e07
7,山东省青岛市胶州市福州北路57号,胶州市,青岛市,1,[],25,http://api.map.baidu.com/place/detail?uid=43da818b1d9bcb267adbd23d&output=html&source=placeapi_v2,36.293762492226,120.0283124875,4.2,,旅游景点;公园,scope,36.297213,120.026965,胶州公园,山东省,43da818b1d9bcb267adbd23d,(0532)87213435,43da818b1d9bcb267adbd23d
8,青岛市李沧区西流庄北村195号,李沧区,青岛市,1,[],5,http://api.map.baidu.com/place/detail?uid=a3e8341c4075bb944afd3f35&output=html&source=placeapi_v2,36.18430079611,120.407803763,3.0,,旅游景点;公园,scope,36.183747,120.408483,水上公园,山东省,a3e8341c4075bb944afd3f35,,a3e8341c4075bb944afd3f35
9,青岛市市南区观象二路21号,市南区,青岛市,1,[],54,http://api.map.baidu.com/place/detail?uid=8098edb09c33788008f5eb38&output=html&source=placeapi_v2,36.077010744919,120.33464501847,4.1,,旅游景点;公园,scope,36.07627,120.333262,观象山公园,山东省,8098edb09c33788008f5eb38,,8098edb09c33788008f5eb38
10,武胜关支路10号,市南区,青岛市,1,[],2,http://api.map.baidu.com/place/detail?uid=ce49d6ba60c44990940319cb&output=html&source=placeapi_v2,,,3.0,,旅游景点;公园,scope,36.059717,120.357644,八大关公园,山东省,ce49d6ba60c44990940319cb,,ce49d6ba60c44990940319cb
11,夏庄路126号,李沧区,青岛市,1,[],15,http://api.map.baidu.com/place/detail?uid=dfc496b6d40021ae8936ee3a&output=html&source=placeapi_v2,36.173818506491,120.43241766275,4.5,,旅游景点;公园,scope,36.173836,120.429075,李沧文化公园,山东省,dfc496b6d40021ae8936ee3a,,dfc496b6d40021ae8936ee3a
12,黄岛区森林景区内(公交站西野生动物园方向200米),黄岛区,青岛市,1,[],2,http://api.map.baidu.com/place/detail?uid=49a345d93806a57b246e98da&output=html&source=placeapi_v2,35.991846475503,120.06837582629,4.0,,旅游景点;植物园,scope,35.992285,120.068122,灵珠山植物园,山东省,,(0532)86835866,49a345d93806a57b246e98da
13,青岛市黄岛区漓江西路674号唐岛湾景区唐岛湾公园内,黄岛区,青岛市,1,[],4,http://api.map.baidu.com/place/detail?uid=203732f609110af40d0a7035&output=html&source=placeapi_v2,35.93725245748,120.21095545085,4.8,,旅游景点;公园,scope,35.938563,120.21073,唐岛湾南岸公园,山东省,203732f609110af40d0a7035,,203732f609110af40d0a7035
14,安徽路19号,市南区,青岛市,1,[],6,http://api.map.baidu.com/place/detail?uid=5ce2637d69871150ae31e517&output=html&source=placeapi_v2,36.071757931305,120.32834219081,3.0,,旅游景点;公园,scope,36.071658,120.328434,老舍公园,山东省,5ce2637d69871150ae31e517,,5ce2637d69871150ae31e517
15,山东省青岛市崂山区滨海公路燕石村,崂山区,青岛市,1,[],12,http://api.map.baidu.com/place/detail?uid=e9571e07214cc7e9c42ba1f4&output=html&source=placeapi_v2,36.242479810544,120.56860053912,4.0,,旅游景点;公园,scope,36.224172,120.56992,花花浪森林公园,山东省,e9571e07214cc7e9c42ba1f4,,e9571e07214cc7e9c42ba1f4
16,山东省青岛市城阳区正源路与科兴路交汇处,城阳区,青岛市,1,[],9,http://api.map.baidu.com/place/detail?uid=c6f7d21d7bf6fdb6cac3dbb6&output=html&source=placeapi_v2,36.329346889957,120.27754725512,3.1,68,旅游景点;公园,scope,36.331121,120.27538,青岛羊毛沟花海湿地公园,山东省,c6f7d21d7bf6fdb6cac3dbb6,(0532)87020888,c6f7d21d7bf6fdb6cac3dbb6
17,青岛市市南区京山路,市南区,青岛市,1,[],11,http://api.map.baidu.com/place/detail?uid=dffd46427a6369cc3d9a5eb1&output=html&source=placeapi_v2,36.075423433769,120.34753169071,4.6,,旅游景点;公园,scope,36.075969,120.349516,青岛山公园,山东省,dffd46427a6369cc3d9a5eb1,"(0532)82966624,(0532)82873567",dffd46427a6369cc3d9a5eb1
18,蓝鳌路1433号,即墨区,青岛市,1,[],7,http://api.map.baidu.com/place/detail?uid=79cceb3649ba6c881e58002b&output=html&source=placeapi_v2,36.396396754117,120.42991568698,3.2,,旅游景点;公园,scope,36.395575,120.429998,水上公园,山东省,79cceb3649ba6c881e58002b,,79cceb3649ba6c881e58002b
19,汉川路金玉花苑南侧,李沧区,青岛市,1,[],5,http://api.map.baidu.com/place/detail?uid=ce4b19f08466b36cd1f49ebd&output=html&source=placeapi_v2,36.17114547181,120.47575365698,4.4,,旅游景点;公园,scope,36.170759,120.475858,晟枫运动公园,山东省,ce4b19f08466b36cd1f49ebd,18678902382,ce4b19f08466b36cd1f49ebd
,address,area,city,detail,children,comment_num,detail_url,image_num,lat,lng,overall_rating,tag,type,lat,lng,name,province,street_id,telephone,uid
0,山东省青岛市平度市杭州路63号,平度市,青岛市,1,[],7,http://api.map.baidu.com/place/detail?uid=35debf29c4631f45a6da3943&output=html&source=placeapi_v2,,36.796898319869,119.9773109101,4.1,旅游景点;公园,scope,36.795553,119.977596,现河公园,山东省,35debf29c4631f45a6da3943,,35debf29c4631f45a6da3943
1,山东省青岛市市北区辽宁路280号,市北区,青岛市,1,[],100,http://api.map.baidu.com/place/detail?uid=f446091832b8e96bb11e36f6&output=html&source=placeapi_v2,,36.087927289482,120.34256350429,4.8,旅游景点;公园,scope,36.085984,120.343033,青岛贮水山儿童公园,山东省,f446091832b8e96bb11e36f6,,f446091832b8e96bb11e36f6
2,青岛市市北区康定路4号,市北区,青岛市,1,[],3,http://api.map.baidu.com/place/detail?uid=f757e6eea31fba16260bd0d7&output=html&source=placeapi_v2,,36.103398981564,120.36456132729,3.3,旅游景点;公园,scope,36.103838,120.362913,青岛市海泊河公园,山东省,f757e6eea31fba16260bd0d7,(0532)83716454,f757e6eea31fba16260bd0d7
3,山东省青岛市李沧区李村河公园(青岛恒星科技学院西),李沧区,青岛市,1,[],7,http://api.map.baidu.com/place/detail?uid=5e13c17dd7bf374e4afc8d74&output=html&source=placeapi_v2,,36.184988472409,120.49249931225,4.7,旅游景点;公园,scope,36.181505,120.492724,李村河公园,山东省,5e13c17dd7bf374e4afc8d74,,5e13c17dd7bf374e4afc8d74
4,青岛市胶州市福州南路华仁烟酒向西40米,胶州市,青岛市,1,[],,http://api.map.baidu.com/place/detail?uid=e67d045efea4ef28ab175ac9&output=html&source=placeapi_v2,,36.288854046692,120.03113192354,,旅游景点;公园,scope,36.290378,120.030541,鼎峰中央公园,山东省,e67d045efea4ef28ab175ac9,,e67d045efea4ef28ab175ac9
5,山东省青岛市黄岛区临港经济开发区水城水库北侧,黄岛区,青岛市,1,[],,http://api.map.baidu.com/place/detail?uid=df8a7d1f05c10b062e473302&output=html&source=placeapi_v2,29,35.949964795358,120.03905834589,4.2,旅游景点;其他,life,35.950721,120.03955,青岛香博园,山东省,df8a7d1f05c10b062e473302,(0532)83197170,df8a7d1f05c10b062e473302
6,青岛市莱西市,莱西市,青岛市,1,[],3,http://api.map.baidu.com/place/detail?uid=a27bc74cd8c6e8f171455b2a&output=html&source=placeapi_v2,,37.084656342966,120.29268370296,5.0,旅游景点;公园,scope,37.084659,120.292833,大青山-省级森林公园,山东省,,,a27bc74cd8c6e8f171455b2a
7,山东省青岛市崂山区崂山路1号石老人观光园旁,崂山区,青岛市,1,[],64,http://api.map.baidu.com/place/detail?uid=b9e5d0b828be4dbd81a12e62&output=html&source=placeapi_v2,,36.100955472515,120.51727194258,4.0,旅游景点;动物园,scope,36.101005,120.516851,东方熊牧场,山东省,b9e5d0b828be4dbd81a12e62,,b9e5d0b828be4dbd81a12e62
8,山东省青岛市平度市龙湾垂钓东北270米,平度市,青岛市,1,[],6,http://api.map.baidu.com/place/detail?uid=6cd9318a47797e2cce04ef82&output=html&source=placeapi_v2,,,,3.8,旅游景点;公园,scope,36.88866,120.009284,老龙湾公园,山东省,,,6cd9318a47797e2cce04ef82
9,青岛市市北区重庆南路,市北区,青岛市,1,[],4,http://api.map.baidu.com/place/detail?uid=2b9ddbeab14ef1ce14a19082&output=html&source=placeapi_v2,,36.122728838816,120.39388600492,4.5,旅游景点;其他,scope,36.121444,120.394883,双山,山东省,2b9ddbeab14ef1ce14a19082,,2b9ddbeab14ef1ce14a19082
10,市南区葵涌土洋东丽观海山庄6路5号(青医附院),市南区,青岛市,1,[],32,http://api.map.baidu.com/place/detail?uid=637df60a8b60577340afe617&output=html&source=placeapi_v2,,36.073508607717,120.33186667361,4.2,旅游景点;公园,scope,36.072958,120.331691,观海山公园,山东省,637df60a8b60577340afe617,,637df60a8b60577340afe617
11,青岛市即墨区盟旺路与黄甲山三路交汇处,即墨区,青岛市,1,[],3,http://api.map.baidu.com/place/detail?uid=b7021bf8054de3f9f4e73b7a&output=html&source=placeapi_v2,1,,,5.0,旅游景点;公园,scope,36.408981,120.523745,盟旺山,山东省,b7021bf8054de3f9f4e73b7a,,b7021bf8054de3f9f4e73b7a
12,文阳路与阜城路交界处,城阳区,青岛市,1,[],2,http://api.map.baidu.com/place/detail?uid=5dd61e8776904fc19b68b49f&output=html&source=placeapi_v2,,36.298352926158,120.417178058,5.0,旅游景点;公园,scope,36.297469,120.418163,城阳市民运动公园,山东省,5dd61e8776904fc19b68b49f,,5dd61e8776904fc19b68b49f
13,山东省青岛市李沧区夏庄路126号,李沧区,青岛市,1,[],100,http://api.map.baidu.com/place/detail?uid=f0419622a293da919c09f7b8&output=html&source=placeapi_v2,,,,4.2,旅游景点;公园,scope,36.173911,120.429173,利客来李村公园,山东省,f0419622a293da919c09f7b8,,f0419622a293da919c09f7b8
14,青岛市黄岛区西北部刘公岛路264号,黄岛区,青岛市,1,[],8,http://api.map.baidu.com/place/detail?uid=d6c5d9915f72a9eb30169b7e&output=html&source=placeapi_v2,,36.049446067716,120.21782118819,3.2,旅游景点;公园,scope,36.04768,120.217243,北海公园,山东省,d6c5d9915f72a9eb30169b7e,,d6c5d9915f72a9eb30169b7e
15,鹤山路附近,即墨区,青岛市,1,[],6,http://api.map.baidu.com/place/detail?uid=57dfd430a6da1432c056acaf&output=html&source=placeapi_v2,,36.404201764403,120.54737336792,5.0,旅游景点;公园,scope,36.406654,120.546176,龙泉湖公园,山东省,57dfd430a6da1432c056acaf,,57dfd430a6da1432c056acaf
16,青岛市胶州市,胶州市,青岛市,1,[],4,http://api.map.baidu.com/place/detail?uid=a3e8341c57b9a8964afd3f7b&output=html&source=placeapi_v2,,36.277173823714,120.09420234955,3.8,旅游景点;公园,scope,36.27185,120.094162,东湖公园,山东省,,,a3e8341c57b9a8964afd3f7b
17,崇明岛西路144号,黄岛区,青岛市,1,[],5,http://api.map.baidu.com/place/detail?uid=34e485081e602ce3d8d89163&output=html&source=placeapi_v2,,36.043774777924,120.21881953888,4.2,旅游景点;公园,scope,36.04299,120.218386,柳湖公园,山东省,34e485081e602ce3d8d89163,,34e485081e602ce3d8d89163
18,山东省青岛市市北区上饶路,市北区,青岛市,1,[],5,http://api.map.baidu.com/place/detail?uid=550fd5f95ebe8207931fc92f&output=html&source=placeapi_v2,,36.117778115886,120.37712001741,4.6,旅游景点;公园,scope,36.118249,120.380548,嘉定山公园,山东省,550fd5f95ebe8207931fc92f,,550fd5f95ebe8207931fc92f
19,青岛市黄岛区崇明岛东路147号,黄岛区,青岛市,1,[],22,http://api.map.baidu.com/place/detail?uid=2a080256518a950831f71d28&output=html&source=placeapi_v2,,36.049861099984,120.23112928878,4.3,旅游景点;公园,scope,36.05101,120.231602,海滨公园,山东省,2a080256518a950831f71d28,,2a080256518a950831f71d28
,address,area,city,detail,children,comment_num,detail_url,lat,lng,overall_rating,tag,type,lat,lng,name,province,street_id,telephone,uid
0,青岛市崂山区梅岭东路51号,崂山区,青岛市,1,[],8,http://api.map.baidu.com/place/detail?uid=18f989556cd2a4646f3e1b7b&output=html&source=placeapi_v2,36.106674521985,120.48069903273,2.8,旅游景点;公园,scope,36.10688,120.480807,足球公园,山东省,18f989556cd2a4646f3e1b7b,,18f989556cd2a4646f3e1b7b
1,山东省青岛市市南区延安路67号,市南区,青岛市,1,[],,http://api.map.baidu.com/place/detail?uid=706aee090281935b0bf5ebf8&output=html&source=placeapi_v2,36.069613705465,120.35094407756,,旅游景点;其他,scope,36.070023,120.351611,小西湖,山东省,706aee090281935b0bf5ebf8,,706aee090281935b0bf5ebf8
2,山东省青岛市城阳区,城阳区,青岛市,1,[],,http://api.map.baidu.com/place/detail?uid=0e81b89415faeaa9fea77871&output=html&source=placeapi_v2,,,0.0,旅游景点;公园,scope,36.22977,120.290923,青岛胶州湾国家级海洋公园,山东省,,,0e81b89415faeaa9fea77871
3,山东省青岛市李沧区永平路与四流北路交叉口南侧,李沧区,青岛市,1,[],10,http://api.map.baidu.com/place/detail?uid=35debf29c4a91f45a6da3935&output=html&source=placeapi_v2,36.20165216163,120.38740766813,4.5,旅游景点;公园,scope,36.203364,120.392334,楼山公园,山东省,35debf29c4a91f45a6da3935,,35debf29c4a91f45a6da3935
4,山东省青岛市平度市大沽河湿地公园,平度市,青岛市,1,[],,http://api.map.baidu.com/place/detail?uid=e56b803ab5d0ca0a2a3a9fb8&output=html&source=placeapi_v2,,,,旅游景点;公园,scope,36.483383,120.181864,大沽河湿地公园,山东省,,,e56b803ab5d0ca0a2a3a9fb8
5,山东省青岛市李沧区环湾路,李沧区,青岛市,1,[],2,http://api.map.baidu.com/place/detail?uid=d0798c51840d5fa022022067&output=html&source=placeapi_v2,36.210108893547,120.372208,3.0,旅游景点;公园,scope,36.200822,120.374238,白泥地公园,山东省,d0798c51840d5fa022022067,,d0798c51840d5fa022022067
6,山东省青岛市即墨区,即墨区,青岛市,1,[],,http://api.map.baidu.com/place/detail?uid=80dba946015d639eafee7a83&output=html&source=placeapi_v2,,,,旅游景点;公园,scope,36.364646,120.469834,即墨区环秀湖休闲体育公园,山东省,,,80dba946015d639eafee7a83
7,青岛市胶州市,胶州市,青岛市,1,[],,http://api.map.baidu.com/place/detail?uid=39a4c09c0897e91e26e0a0d1&output=html&source=placeapi_v2,36.303059793591,119.99703435471,,旅游景点;公园,scope,36.304285,119.998387,二里河公园,山东省,39a4c09c0897e91e26e0a0d1,,39a4c09c0897e91e26e0a0d1
8,市南区琴屿路,市南区,青岛市,1,[],69,http://api.map.baidu.com/place/detail?uid=e116be540264e67ac91b9517&output=html&source=placeapi_v2,36.059276132664,120.33478238376,4.4,旅游景点;公园,scope,36.059165,120.330705,小青岛公园,山东省,e116be540264e67ac91b9517,(0532)82863944,e116be540264e67ac91b9517
9,山东省青岛市李沧区汾阳路,李沧区,青岛市,1,[],5,http://api.map.baidu.com/place/detail?uid=35a4754b2b33c90843ab9aa3&output=html&source=placeapi_v2,36.201822521581,120.3840545344,4.2,旅游景点;公园,scope,36.201438,120.382131,烟墩山公园,山东省,35a4754b2b33c90843ab9aa3,,35a4754b2b33c90843ab9aa3
10,市南区太湖路19号,市南区,青岛市,1,[],5,http://api.map.baidu.com/place/detail?uid=fc00a704217a6e7016a190f6&output=html&source=placeapi_v2,36.085537067321,120.3960009278,4.2,旅游景点;公园,scope,36.085339,120.396213,八大湖公园,山东省,fc00a704217a6e7016a190f6,,fc00a704217a6e7016a190f6
11,滨海大道1388号,黄岛区,青岛市,1,[],14,http://api.map.baidu.com/place/detail?uid=d219bb1d1599848af50e7767&output=html&source=placeapi_v2,35.889974167375,120.07159030925,4.2,旅游景点;公园,scope,35.887922,120.073197,海滨公园,山东省,3d3388c7e6769bfd130daac7,,d219bb1d1599848af50e7767
12,青岛市城阳区华城路319号,城阳区,青岛市,1,[],,http://api.map.baidu.com/place/detail?uid=44ba524c641318f42a02e1e8&output=html&source=placeapi_v2,36.309020197563,120.39043126656,0.0,旅游景点;公园,scope,36.310271,120.389703,民生公园,山东省,44ba524c641318f42a02e1e8,,44ba524c641318f42a02e1e8
13,春阳路附近,城阳区,青岛市,1,[],,http://api.map.baidu.com/place/detail?uid=b974461ce04335bb9d9d68f5&output=html&source=placeapi_v2,,,,旅游景点;公园,scope,36.325133,120.442671,白云山公园,山东省,b974461ce04335bb9d9d68f5,,b974461ce04335bb9d9d68f5
14,山东省青岛市市南区莆田路6号,市南区,青岛市,1,[],16,http://api.map.baidu.com/place/detail?uid=6deee3082cc7fb6b29fc4811&output=html&source=placeapi_v2,36.079302909709,120.41810718796,4.4,旅游景点;公园,scope,36.078361,120.418133,辛家庄北山公园,山东省,6deee3082cc7fb6b29fc4811,,6deee3082cc7fb6b29fc4811
15,山东省青岛市即墨区,即墨区,青岛市,1,[],1,http://api.map.baidu.com/place/detail?uid=3ab1cd7b32c70a37fe0eb022&output=html&source=placeapi_v2,,,5.0,旅游景点;其他,scope,36.385185,120.699119,蓝谷滨海公园观海台,山东省,,,3ab1cd7b32c70a37fe0eb022
16,山东省青岛市城阳区河套街道红岛绿洲湿地公园,城阳区,青岛市,1,[],,http://api.map.baidu.com/place/detail?uid=6d99aef0372a49de43afe6e8&output=html&source=placeapi_v2,,,,旅游景点;公园,scope,36.215355,120.149341,红岛绿洲湿地公园,山东省,,,6d99aef0372a49de43afe6e8
17,青岛市城阳区南流路191号,城阳区,青岛市,1,[],1,http://api.map.baidu.com/place/detail?uid=373cf7576b132b6f4354d7e7&output=html&source=placeapi_v2,36.251934234235,120.40673726326,2.0,旅游景点;公园,scope,36.25165,120.408151,仙家寨公园,山东省,373cf7576b132b6f4354d7e7,,373cf7576b132b6f4354d7e7
18,青岛市胶州市兰州西路,胶州市,青岛市,1,[],3,http://api.map.baidu.com/place/detail?uid=3f826ed3ba277d44d0f49e86&output=html&source=placeapi_v2,36.286316124983,120.00194971358,4.3,旅游景点;公园,scope,36.287583,120.002919,西湖公园,山东省,3f826ed3ba277d44d0f49e86,(0532)87285704,3f826ed3ba277d44d0f49e86
19,山东省青岛市黄岛区横河公园(泊里一路北60米),黄岛区,青岛市,1,[],,http://api.map.baidu.com/place/detail?uid=57d4d705dc7963041f38942e&output=html&source=placeapi_v2,35.709112282882,119.77958352516,,旅游景点;公园,scope,35.710806,119.780726,泊里镇横河公园,山东省,,,57d4d705dc7963041f38942e
,address,area,city,detail,children,comment_num,detail_url,lat,lng,overall_rating,price,tag,type,lat,lng,name,province,street_id,telephone,uid
0,山东省青岛市崂山区银岭路(懿品御府西100米),崂山区,青岛市,1,[],3,http://api.map.baidu.com/place/detail?uid=304a54ba9b9b1d32eee4a5e1&output=html&source=placeapi_v2,36.124937091041,120.46130869328,3.7,,旅游景点;公园,scope,36.123968,120.461119,深圳路体育公园,山东省,304a54ba9b9b1d32eee4a5e1,,304a54ba9b9b1d32eee4a5e1
1,前湾港路323号,黄岛区,青岛市,1,[],3,http://api.map.baidu.com/place/detail?uid=4a2e3671401163bfa6da39f9&output=html&source=placeapi_v2,36.009634078316,120.14347961964,4.3,,旅游景点;公园,scope,36.010802,120.146686,南辛安河公园,山东省,4a2e3671401163bfa6da39f9,,4a2e3671401163bfa6da39f9
2,宁夏路街道龙潭路,市南区,青岛市,1,[],44,http://api.map.baidu.com/place/detail?uid=fda9fb7990fca21f2a3a9f84&output=html&source=placeapi_v2,,,3.0,,旅游景点;其他,scope,36.072278,120.364987,太平山,山东省,fda9fb7990fca21f2a3a9f84,,fda9fb7990fca21f2a3a9f84
3,山东省青岛市市北区水清沟东山公园(九江路西150米),市北区,青岛市,1,[],6,http://api.map.baidu.com/place/detail?uid=494d07c96d190b2ce311038d&output=html&source=placeapi_v2,36.140046444969,120.39052853328,4.4,,旅游景点;公园,scope,36.140917,120.388845,水清沟东山公园,山东省,494d07c96d190b2ce311038d,,494d07c96d190b2ce311038d
4,青岛市市南区东海西路8号,市南区,青岛市,1,[],6,http://api.map.baidu.com/place/detail?uid=fc811e4af9ab402f3362120e&output=html&source=placeapi_v2,36.064021241347,120.38242682818,4.8,,旅游景点;公园,scope,36.06454,120.381972,海趣园,山东省,fc811e4af9ab402f3362120e,,fc811e4af9ab402f3362120e
5,山东省青岛市即墨区S202柳沟五村,即墨区,青岛市,1,[],1,http://api.map.baidu.com/place/detail?uid=5460d74bcc4ea67f091cc7ad&output=html&source=placeapi_v2,,,0.0,,旅游景点;植物园,scope,36.528869,120.535343,华山牡丹园,山东省,,,5460d74bcc4ea67f091cc7ad
6,环山东路与雨荷路交叉口东北150米,李沧区,青岛市,1,[],1,http://api.map.baidu.com/place/detail?uid=1674a2e19996a60407026f06&output=html&source=placeapi_v2,36.206112209791,120.51012753471,4.0,,旅游景点;景点,scope,36.206037,120.509449,青岛世园会植物馆,山东省,1674a2e19996a60407026f06,,1674a2e19996a60407026f06
7,鞍山二路42号,市北区,青岛市,1,[],8,http://api.map.baidu.com/place/detail?uid=e6ee2fd23566df492b11d1d7&output=html&source=placeapi_v2,36.109363294927,120.3732727914,4.5,,旅游景点;公园,scope,36.109744,120.371698,南山公园,山东省,e6ee2fd23566df492b11d1d7,,e6ee2fd23566df492b11d1d7
8,人民路16号,平度市,青岛市,1,[],0,http://api.map.baidu.com/place/detail?uid=4c24675c87154e0df4eafc4e&output=html&source=placeapi_v2,36.797405642716,119.98424751835,0.0,,旅游景点;植物园,scope,36.796464,119.981218,平度植物园,山东省,4c24675c87154e0df4eafc4e,,4c24675c87154e0df4eafc4e
9,龙泉河七路,即墨区,青岛市,1,[],1,http://api.map.baidu.com/place/detail?uid=c8c47e2e965c3d12f90cadd1&output=html&source=placeapi_v2,,,5.0,,旅游景点;公园,scope,36.453927,120.511289,汽车城公园,山东省,c8c47e2e965c3d12f90cadd1,,c8c47e2e965c3d12f90cadd1
10,山东省青岛市莱西市望城街道龙口中路10号,莱西市,青岛市,1,[],,http://api.map.baidu.com/place/detail?uid=c8dbfbf323f8b9f86340a9f3&output=html&source=placeapi_v2,36.852378193578,120.52774351237,0.0,,房地产;住宅区,scope,36.851414,120.528365,洙河花园,山东省,c8dbfbf323f8b9f86340a9f3,,c8dbfbf323f8b9f86340a9f3
11,莱西市南墅镇五岳路1号,莱西市,青岛市,1,[],2,http://api.map.baidu.com/place/detail?uid=598893ac5c9f23aef5c59cf7&output=html&source=placeapi_v2,,,5.0,,旅游景点;公园,scope,37.058354,120.324957,东鲁农业公园,山东省,,"18561913299,(0532)83430688",598893ac5c9f23aef5c59cf7
12,山东省青岛市黄岛区滨海大道,黄岛区,青岛市,1,[],6,http://api.map.baidu.com/place/detail?uid=34f6ce181da093119b68b42d&output=html&source=placeapi_v2,35.918607468145,120.12062221079,3.0,,旅游景点;公园,scope,35.914268,120.116414,世茂滨海公园,山东省,34f6ce181da093119b68b42d,,34f6ce181da093119b68b42d
13,山东胶州艾山风景区,胶州市,青岛市,1,[],8,http://api.map.baidu.com/place/detail?uid=a41a0d88eba5c6fb6c476077&output=html&source=placeapi_v2,36.128711642216,119.95244239733,4.0,,旅游景点;公园,scope,36.128854,119.952001,艾山星空主题公园,山东省,,,a41a0d88eba5c6fb6c476077
14,山东省青岛市李仓区北十梅庵公园内,李沧区,青岛市,1,[],18,http://api.map.baidu.com/place/detail?uid=4ea3f2f141501cabaecb6635&output=html&source=placeapi_v2,,,3.7,20,旅游景点;景点,scope,36.207364,120.425467,禽鸣苑,山东省,4ea3f2f141501cabaecb6635,,4ea3f2f141501cabaecb6635
15,青岛市即墨区大泽山之右的天柱山上,即墨区,青岛市,1,[],,http://api.map.baidu.com/place/detail?uid=13928c28a993e58352e5c5b5&output=html&source=placeapi_v2,36.376837788726,120.63538478199,,,旅游景点;公园,scope,36.376624,120.635414,鳌山湾森林公园·天柱山,山东省,,,13928c28a993e58352e5c5b5
16,青岛市城阳区高新区火炬路,城阳区,青岛市,1,[],5,http://api.map.baidu.com/place/detail?uid=a6eccd4b997fdb648b2fb55c&output=html&source=placeapi_v2,,,3.6,,旅游景点;公园,scope,36.265266,120.318553,伊甸园,山东省,a6eccd4b997fdb648b2fb55c,,a6eccd4b997fdb648b2fb55c
17,山东省青岛市城阳区世纪公园长城路流亭运动公园,城阳区,青岛市,1,[],1,http://api.map.baidu.com/place/detail?uid=a8f1daf0a6e15da528d7ab5e&output=html&source=placeapi_v2,36.285502489786,120.40341782318,3.0,,旅游景点;公园,scope,36.285955,120.403393,流亭运动公园,山东省,a8f1daf0a6e15da528d7ab5e,,a8f1daf0a6e15da528d7ab5e
18,青岛市平度市福州南路西侧,平度市,青岛市,1,[],,http://api.map.baidu.com/place/detail?uid=eb0f86090257837bc6f025c0&output=html&source=placeapi_v2,,,,,旅游景点;公园,scope,36.769732,119.996332,平度奥林匹克公园,山东省,eb0f86090257837bc6f025c0,,eb0f86090257837bc6f025c0
19,山东省青岛市即墨区温泉公园(岭海路南160米),即墨区,青岛市,1,[],4,http://api.map.baidu.com/place/detail?uid=55fa2c0bb80db02c1ce999d8&output=html&source=placeapi_v2,36.446133024573,120.66122722322,3.7,,旅游景点;公园,scope,36.446555,120.664237,温泉公园,山东省,,,55fa2c0bb80db02c1ce999d8
,address,area,city,detail,children,comment_num,detail_url,image_num,lat,lng,overall_rating,tag,type,lat,lng,name,province,street_id,telephone,uid
0,澳门路138号,市南区,青岛市,1,[],,http://api.map.baidu.com/place/detail?uid=a33f747dbffe30ef45572617&output=html&source=placeapi_v2,,,,0.0,旅游景点;公园,scope,36.061013,120.412253,海韵园,山东省,a33f747dbffe30ef45572617,,a33f747dbffe30ef45572617
1,君峰路与少山路交叉口东北100米,李沧区,青岛市,1,[],2,http://api.map.baidu.com/place/detail?uid=3cf28e136a159f7fb05c6a3f&output=html&source=placeapi_v2,,36.164742090359,120.42182610181,3.5,旅游景点;公园,scope,36.164302,120.422331,西山老年主题公园,山东省,3cf28e136a159f7fb05c6a3f,,3cf28e136a159f7fb05c6a3f
2,山东省青岛市市南区江西路106号,市南区,青岛市,1,[],,http://api.map.baidu.com/place/detail?uid=e481be1e4663137738221c77&output=html&source=placeapi_v2,,,,,旅游景点;公园,scope,36.079411,120.406652,鲨鱼公园(江西路店),山东省,e481be1e4663137738221c77,(0532)85678667,e481be1e4663137738221c77
3,山东省青岛市黄岛区长江中路丁家河公园(莫泰168南150米),黄岛区,青岛市,1,[],2,http://api.map.baidu.com/place/detail?uid=49a02a7a23aa39592a201ab6&output=html&source=placeapi_v2,,35.964341683295,120.2087688396,4.5,旅游景点;公园,scope,35.96289,120.209359,丁家河公园,山东省,49a02a7a23aa39592a201ab6,,49a02a7a23aa39592a201ab6
4,青岛市莱西市,莱西市,青岛市,1,[],,http://api.map.baidu.com/place/detail?uid=b50b3f81ac06096eb020a814&output=html&source=placeapi_v2,,,,,旅游景点,scope,36.876424,120.485624,世界休闲体育大会主题公园,山东省,b50b3f81ac06096eb020a814,,b50b3f81ac06096eb020a814
5,金水路149号,李沧区,青岛市,1,[],1,http://api.map.baidu.com/place/detail?uid=9ec2e378d3d75e8f4f6d46e8&output=html&source=placeapi_v2,,36.185123083525,120.49349207728,4.0,旅游景点;公园,scope,36.18804,120.492513,万科生态公园,山东省,9ec2e378d3d75e8f4f6d46e8,,9ec2e378d3d75e8f4f6d46e8
6,同乐三路2号浮山后六小区(近浮山森林公园),市北区,青岛市,1,[],8,http://api.map.baidu.com/place/detail?uid=75d0881af082174e3a04b179&output=html&source=placeapi_v2,,36.105746043201,120.43071124879,4.7,旅游景点;公园,scope,36.105112,120.430547,山头公园,山东省,75d0881af082174e3a04b179,,75d0881af082174e3a04b179
7,山东省青岛市黄岛区海军公园之北城市阳台之南滨海大道之东,黄岛区,青岛市,1,[],1,http://api.map.baidu.com/place/detail?uid=961a98fa81d775fe2e4733e7&output=html&source=placeapi_v2,,,,5.0,旅游景点;公园,scope,35.84554,120.038948,青岛西海岸中央公园,山东省,,,961a98fa81d775fe2e4733e7
8,青岛市市北区拜泉路20号,市北区,青岛市,1,[],2,http://api.map.baidu.com/place/detail?uid=d0367f1a583efe7f8bfc0613&output=html&source=placeapi_v2,,36.112237609164,120.38407394499,4.5,旅游景点;公园,scope,36.112966,120.383577,坛顶山公园,山东省,d0367f1a583efe7f8bfc0613,,d0367f1a583efe7f8bfc0613
9,水清沟街道长沙路100号,市北区,青岛市,1,[],3,http://api.map.baidu.com/place/detail?uid=d991e11637c7864c1f389465&output=html&source=placeapi_v2,,36.139141556631,120.38799050311,4.7,旅游景点;公园,scope,36.138607,120.388484,东南山公园,山东省,d991e11637c7864c1f389465,,d991e11637c7864c1f389465
10,山东省青岛市即墨区大干一路南150米,即墨区,青岛市,1,[],1,http://api.map.baidu.com/place/detail?uid=9707a5dc37be0afee5e96592&output=html&source=placeapi_v2,,36.442546760512,120.19802845907,5.0,旅游景点;公园,scope,36.44251,120.197926,白塔公园,山东省,,,9707a5dc37be0afee5e96592
11,长江中路268号福瑞泰购物广场B1楼瑞泰购物广场1层,黄岛区,青岛市,1,[],1,http://api.map.baidu.com/place/detail?uid=d411ed8910472a3a40024503&output=html&source=placeapi_v2,,,,1.0,旅游景点;公园,scope,35.959329,120.194689,厘米公园,山东省,d411ed8910472a3a40024503,,d411ed8910472a3a40024503
12,青岛市城阳区春阳路,城阳区,青岛市,1,[],,http://api.map.baidu.com/place/detail?uid=4d80c0024e93e36a09b93a38&output=html&source=placeapi_v2,,36.324064228229,120.46358575042,,旅游景点;公园,scope,36.324185,120.465301,青特公园,山东省,4d80c0024e93e36a09b93a38,,4d80c0024e93e36a09b93a38
13,华中路与河东路交叉口东南150米,城阳区,青岛市,1,[],,http://api.map.baidu.com/place/detail?uid=0e034ff8a84ad92e260bd0d4&output=html&source=placeapi_v2,,36.281471835991,120.29971806841,,旅游景点;景点,scope,36.281583,120.300032,艺术水岸,山东省,0e034ff8a84ad92e260bd0d4,,0e034ff8a84ad92e260bd0d4
14,山东省青岛市黄岛区漓江西路674号唐岛湾景区唐岛湾公园内,黄岛区,青岛市,1,[],2,http://api.map.baidu.com/place/detail?uid=54aa063f30945bea0f0a700f&output=html&source=placeapi_v2,,,,5.0,旅游景点;景点,scope,35.937,120.203355,银沙滩植物园,山东省,54aa063f30945bea0f0a700f,,54aa063f30945bea0f0a700f
15,青岛市黄岛区珠海街道烟台东村烟台东一路南,黄岛区,青岛市,1,[],2,http://api.map.baidu.com/place/detail?uid=5211d21995603c597dc87667&output=html&source=placeapi_v2,,35.869088712122,120.00871315727,3.0,旅游景点;公园,scope,35.869011,120.008779,圆龙公园,山东省,5211d21995603c597dc87667,,5211d21995603c597dc87667
16,山东省青岛市黄岛区辛安街道开拓路兴悦华城(西区),黄岛区,青岛市,1,[],2,http://api.map.baidu.com/place/detail?uid=890835653f1686a2d6851fbe&output=html&source=placeapi_v2,,36.023308222238,120.15325770476,3.5,旅游景点;公园,scope,36.02324,120.154061,辛安公园,山东省,890835653f1686a2d6851fbe,,890835653f1686a2d6851fbe
17,山东省青岛市李沧区天水路27号(青岛百果山森林公园),李沧区,青岛市,1,[],,http://api.map.baidu.com/place/detail?uid=61b271962703bba4ee74f873&output=html&source=placeapi_v2,1,,,,文化传媒;展览馆,life,36.206445,120.510328,青岛世博园景区-世界园艺博览会,山东省,61b271962703bba4ee74f873,(0532)58738790,61b271962703bba4ee74f873
18,银川西路87号动漫产业园后,市南区,青岛市,1,[],1,http://api.map.baidu.com/place/detail?uid=916239000eb3027a94ec8484&output=html&source=placeapi_v2,,36.09540586418,120.42165752759,5.0,旅游景点;公园,scope,36.095365,120.421748,浮山生态运动体验园,山东省,916239000eb3027a94ec8484,,916239000eb3027a94ec8484
19,山东省青岛市城阳区卓越·蔚蓝群岛三期(金街西),城阳区,青岛市,1,[],1,http://api.map.baidu.com/place/detail?uid=659bb3486043f763e6e965c3&output=html&source=placeapi_v2,,36.263209142142,120.34617294613,5.0,旅游景点;公园,scope,36.263179,120.345088,岛民运动公园,山东省,659bb3486043f763e6e965c3,,659bb3486043f763e6e965c3
,address,area,city,detail,children,comment_num,detail_url,lat,lng,overall_rating,tag,type,lat,lng,name,province,street_id,telephone,uid
0,安国路与文安路交叉口北150米,李沧区,青岛市,1,[],3,http://api.map.baidu.com/place/detail?uid=341c35decb82b3bfe6073835&output=html&source=placeapi_v2,36.186569718182,120.40525003584,2.0,旅游景点;公园,scope,36.1875,120.404987,牛毛山公园,山东省,341c35decb82b3bfe6073835,,341c35decb82b3bfe6073835
1,山东省青岛市李沧区东李立交与石牛山路交叉口东150米,李沧区,青岛市,1,[],3,http://api.map.baidu.com/place/detail?uid=001c6e0730bf702a4c3a59b0&output=html&source=placeapi_v2,36.168076475732,120.45651247128,2.3,旅游景点;公园,scope,36.166538,120.45752,青龙山公园,山东省,001c6e0730bf702a4c3a59b0,,001c6e0730bf702a4c3a59b0
2,山东省青岛市李沧区天水路世界园艺博览会梨树坡,李沧区,青岛市,1,[],,http://api.map.baidu.com/place/detail?uid=48c15cc97960ef71b75f1ecb&output=html&source=placeapi_v2,,,0.0,旅游景点;景点,scope,36.204774,120.507043,植物园,山东省,48c15cc97960ef71b75f1ecb,,48c15cc97960ef71b75f1ecb
3,朝阳路与青威路交叉口西150米,即墨区,青岛市,1,[],1,http://api.map.baidu.com/place/detail?uid=93280ba939ddacbb4afc8df3&output=html&source=placeapi_v2,36.418589188636,120.45588183117,5.0,旅游景点;公园,scope,36.418499,120.455839,枣杭公园,山东省,93280ba939ddacbb4afc8df3,,93280ba939ddacbb4afc8df3
4,劲松三路南段距银川西路200米路东,市北区,青岛市,1,[],2,http://api.map.baidu.com/place/detail?uid=881a28e7d794d044f942b279&output=html&source=placeapi_v2,36.102626283131,120.42516209946,3.0,旅游景点;公园,scope,36.102977,120.425741,环湖公园,山东省,881a28e7d794d044f942b279,,881a28e7d794d044f942b279
5,209省道附近,即墨区,青岛市,1,[],1,http://api.map.baidu.com/place/detail?uid=03619b65da7fbe1a1811d56d&output=html&source=placeapi_v2,36.567492651347,120.46403630543,2.0,旅游景点;植物园,scope,36.569716,120.462771,青岛一品天香牡丹园,山东省,,18953955008,03619b65da7fbe1a1811d56d
6,朝阳路与蓝鳌路交叉口东北150米,即墨区,青岛市,1,[],4,http://api.map.baidu.com/place/detail?uid=bcaebff8369b1329c9e33cf5&output=html&source=placeapi_v2,36.39815247997,120.45693065854,3.0,旅游景点;公园,scope,36.400726,120.456466,龙泉河公园,山东省,bcaebff8369b1329c9e33cf5,,bcaebff8369b1329c9e33cf5
7,山东省青岛市崂山区实业发展有限公司附近,崂山区,青岛市,1,[],,http://api.map.baidu.com/place/detail?uid=e452151e36dc0290725e801d&output=html&source=placeapi_v2,,,,旅游景点;公园,scope,36.138016,120.513953,张村花卉生态园,山东省,e452151e36dc0290725e801d,,e452151e36dc0290725e801d
8,山东省青岛市胶州市洋河旺山梅园(石冷路南),胶州市,青岛市,1,[],,http://api.map.baidu.com/place/detail?uid=c641770073b65979081cc73c&output=html&source=placeapi_v2,,,,旅游景点;公园,scope,36.135406,119.970763,青岛洋河旺山梅园,山东省,,,c641770073b65979081cc73c
9,北宅街道北九水观崂村100号,崂山区,青岛市,1,[],1,http://api.map.baidu.com/place/detail?uid=7ec74a4f4c89f8ee9fec2bcd&output=html&source=placeapi_v2,,,5.0,旅游景点;公园,scope,36.21437,120.600173,顺河观光园,山东省,,18653229586,7ec74a4f4c89f8ee9fec2bcd
10,山东省青岛市市北区台柳路267号,市北区,青岛市,1,[],,http://api.map.baidu.com/place/detail?uid=248c40b806ad81ca4c776e5b&output=html&source=placeapi_v2,,,,旅游景点;公园,scope,36.120631,120.401963,儿童公园,山东省,248c40b806ad81ca4c776e5b,,248c40b806ad81ca4c776e5b
11,山东省青岛市李沧区宾川路和达和城附近,李沧区,青岛市,1,[],3,http://api.map.baidu.com/place/detail?uid=cc3a221a1d3418c22bd7ab0b&output=html&source=placeapi_v2,36.184991477479,120.48083639712,4.3,旅游景点;公园,scope,36.179605,120.48019,金水河公园,山东省,cc3a221a1d3418c22bd7ab0b,,cc3a221a1d3418c22bd7ab0b
12,山东省青岛市黄岛区北窑东门街月亮湖公园(青岛小镇附近),黄岛区,青岛市,1,[],3,http://api.map.baidu.com/place/detail?uid=5a7db153b64e24ed71455b90&output=html&source=placeapi_v2,35.955826625472,120.13545328955,1.0,旅游景点;公园,scope,35.955052,120.136018,月亮湖公园,山东省,5a7db153b64e24ed71455b90,,5a7db153b64e24ed71455b90
13,松花江路徐山公园,黄岛区,青岛市,1,[],7,http://api.map.baidu.com/place/detail?uid=7503683550bd76d25f0d0281&output=html&source=placeapi_v2,35.994760845289,120.158457442,1.5,旅游景点;公园,scope,35.998207,120.156082,徐山公园,山东省,7503683550bd76d25f0d0281,,7503683550bd76d25f0d0281
14,青岛市胶州市海达路附近,胶州市,青岛市,1,[],,http://api.map.baidu.com/place/detail?uid=e964008ed85f945cc356acb0&output=html&source=placeapi_v2,,,,旅游景点;植物园,scope,36.194685,119.905279,青岛明玉农业生态观光园,山东省,,15066287329,e964008ed85f945cc356acb0
15,青岛市市北区康宁路4号,市北区,青岛市,1,[],1,http://api.map.baidu.com/place/detail?uid=910c359766c7e3f7fd0eb08c&output=html&source=placeapi_v2,,,3.0,旅游景点;公园,scope,36.102045,120.364242,青岛文化公园,山东省,910c359766c7e3f7fd0eb08c,,910c359766c7e3f7fd0eb08c
16,青岛市胶州市渔乐湖小区南侧,胶州市,青岛市,1,[],,http://api.map.baidu.com/place/detail?uid=95c91d60219f8431f219377f&output=html&source=placeapi_v2,,,0.0,旅游景点;公园,scope,36.309093,120.114385,麻湾渔乐休闲公园,山东省,,,95c91d60219f8431f219377f
17,环岛路与399省道交叉口西南50米,黄岛区,青岛市,1,[],,http://api.map.baidu.com/place/detail?uid=9a0c1f2a88412ce09503198b&output=html&source=placeapi_v2,,,,旅游景点;公园,scope,35.977766,120.281942,山水生态公园,山东省,,,9a0c1f2a88412ce09503198b
18,市南区伏龙路20号,市南区,青岛市,1,[],4,http://api.map.baidu.com/place/detail?uid=f60a15edce43b9edbb17e717&output=html&source=placeapi_v2,36.075370790314,120.33857813686,4.5,旅游景点;公园,scope,36.075931,120.339475,伏龙山公园,山东省,f60a15edce43b9edbb17e717,,f60a15edce43b9edbb17e717
19,山东省青岛市即墨区,即墨区,青岛市,1,[],,http://api.map.baidu.com/place/detail?uid=76ffe84478173c7e9e95de5c&output=html&source=placeapi_v2,,,,旅游景点;公园,scope,36.480494,120.606117,青岛王圈湿地公园,山东省,,,76ffe84478173c7e9e95de5c
,address,area,city,detail,children,comment_num,detail_url,lat,lng,overall_rating,tag,type,lat,lng,name,province,street_id,telephone,uid
0,青岛市黄岛区崇明岛东路151号楼,黄岛区,青岛市,1,[],4,http://api.map.baidu.com/place/detail?uid=14076deee67d2cf502294f6f&output=html&source=placeapi_v2,36.050443585917,120.22928130007,4.0,旅游景点;公园,scope,36.05027,120.229913,生肖公园,山东省,14076deee67d2cf502294f6f,,14076deee67d2cf502294f6f
1,城阳区第二实验小学北侧,城阳区,青岛市,1,[],,http://api.map.baidu.com/place/detail?uid=e636ee2b168f3a99c929154a&output=html&source=placeapi_v2,36.316325788048,120.4195624905,0.0,旅游景点;公园,scope,36.316238,120.421025,运动公园,山东省,e636ee2b168f3a99c929154a,,e636ee2b168f3a99c929154a
2,山东省青岛市黄岛区卧龙村S334(海城路),黄岛区,青岛市,1,[],3,http://api.map.baidu.com/place/detail?uid=faf72b4fb6d6bc4eb05c6ac7&output=html&source=placeapi_v2,35.695467503992,119.87881362163,5.0,旅游景点;公园,scope,35.694213,119.879048,琅琊公园,山东省,,,faf72b4fb6d6bc4eb05c6ac7
3,山东省青岛市黄岛区银盛泰·星河城一期隐珠公园,黄岛区,青岛市,1,[],3,http://api.map.baidu.com/place/detail?uid=f13d2680500c5cfcb35c6afe&output=html&source=placeapi_v2,,,2.0,旅游景点;公园,scope,35.901682,120.042065,隐珠公园,山东省,f13d2680500c5cfcb35c6afe,,f13d2680500c5cfcb35c6afe
4,下疃村,城阳区,青岛市,1,[],1,http://api.map.baidu.com/place/detail?uid=0c4ce8eb9d7a096ef4eafc6f&output=html&source=placeapi_v2,,,3.0,旅游景点;公园,scope,36.254116,120.139804,河套水上公园,山东省,0c4ce8eb9d7a096ef4eafc6f,(0532)87029878,0c4ce8eb9d7a096ef4eafc6f
5,青岛市李沧区重庆中路,李沧区,青岛市,1,[],,http://api.map.baidu.com/place/detail?uid=a7cc7053ead97f4a4107c170&output=html&source=placeapi_v2,,,,旅游景点;公园,scope,36.197323,120.409857,石沟公园,山东省,,,a7cc7053ead97f4a4107c170
6,山东省青岛市即墨区埠惜路,即墨区,青岛市,1,[],,http://api.map.baidu.com/place/detail?uid=1876cc92ac68a354a8175a61&output=html&source=placeapi_v2,,,,旅游景点;公园,scope,36.388761,120.512983,东城名郡动步公园,山东省,1876cc92ac68a354a8175a61,,1876cc92ac68a354a8175a61
7,山东省青岛市黄岛区青岛小镇·岚山北,黄岛区,青岛市,1,[],,http://api.map.baidu.com/place/detail?uid=e3ee7b34a4ca992b7069d364&output=html&source=placeapi_v2,,,,旅游景点,scope,35.949616,120.12904,冒险公园,山东省,,,e3ee7b34a4ca992b7069d364
8,山东省青岛市黄岛区天海花园A区西北(团结路东),黄岛区,青岛市,1,[],2,http://api.map.baidu.com/place/detail?uid=c212e66466be70dd09b93abd&output=html&source=placeapi_v2,,,5.0,旅游景点;公园,scope,36.017875,120.170599,辛安前河公园,山东省,,,c212e66466be70dd09b93abd
9,兰州东路572号,胶州市,青岛市,1,[],,http://api.map.baidu.com/place/detail?uid=d5be2a3fb931e2831e1d11dd&output=html&source=placeapi_v2,36.293814915818,120.04490234964,0.0,旅游景点;公园,scope,36.293021,120.044175,人口家庭公园,山东省,d5be2a3fb931e2831e1d11dd,,d5be2a3fb931e2831e1d11dd
10,人民路12号,平度市,青岛市,1,[],,http://api.map.baidu.com/place/detail?uid=dbe1c955f8138fa88bfc06ff&output=html&source=placeapi_v2,36.797401720865,119.98413710942,,旅游景点;公园,scope,36.797029,119.987141,现河公园东区,山东省,dbe1c955f8138fa88bfc06ff,,dbe1c955f8138fa88bfc06ff
11,君峰路与滨河路交叉口东南50米,李沧区,青岛市,1,[],2,http://api.map.baidu.com/place/detail?uid=302d619dd5f7a4f33517dcfb&output=html&source=placeapi_v2,,,5.0,旅游景点;公园,scope,36.155116,120.42331,李村滨河公园,山东省,302d619dd5f7a4f33517dcfb,,302d619dd5f7a4f33517dcfb
12,山东省青岛市市北区宁乡路与新宁路交叉口东南50米,市北区,青岛市,1,[],1,http://api.map.baidu.com/place/detail?uid=4347f1f1b7c2e1a23f9a5efe&output=html&source=placeapi_v2,,,3.0,旅游景点;公园,scope,36.132745,120.404513,长乐公园,山东省,,,4347f1f1b7c2e1a23f9a5efe
13,兴华路24号,李沧区,青岛市,1,[],0,http://api.map.baidu.com/place/detail?uid=fa7da3e842b7316342d63e35&output=html&source=placeapi_v2,36.18882622562,120.39632120965,0.0,旅游景点;公园,scope,36.188436,120.396477,永兴游园,山东省,fa7da3e842b7316342d63e35,,fa7da3e842b7316342d63e35
14,青岛市市南区青岛动物园东区内,市南区,青岛市,1,[],12,http://api.map.baidu.com/place/detail?uid=d0f2ea540d22b26b49fc8d0f&output=html&source=placeapi_v2,36.075976443799,120.35746811565,3.4,旅游景点;景点,scope,36.075167,120.358413,狮虎山,山东省,d0f2ea540d22b26b49fc8d0f,,d0f2ea540d22b26b49fc8d0f
15,青岛市市北区万科蓝山1期,市北区,青岛市,1,[],2,http://api.map.baidu.com/place/detail?uid=ad4e5ce2d9bc9c3901ff2d38&output=html&source=placeapi_v2,36.110810369479,120.39613634466,2.0,旅游景点;公园,scope,36.111062,120.396094,蓝山公园,山东省,ad4e5ce2d9bc9c3901ff2d38,,ad4e5ce2d9bc9c3901ff2d38
16,山东省青岛市崂山区,崂山区,青岛市,1,[],,http://api.map.baidu.com/place/detail?uid=e2c734e4976aab5d15a19043&output=html&source=placeapi_v2,,,0.0,旅游景点;公园,scope,36.162242,120.59912,大河东森林公园,山东省,,,e2c734e4976aab5d15a19043
17,火炬路与祥源路交叉口西北100米,城阳区,青岛市,1,[],,http://api.map.baidu.com/place/detail?uid=c2f1b10131fe0b125bf6be10&output=html&source=placeapi_v2,36.269420314338,120.30794167358,,旅游景点;公园,scope,36.269436,120.307686,中欧国际城-滨河公园,山东省,c2f1b10131fe0b125bf6be10,,c2f1b10131fe0b125bf6be10
18,山东省青岛市黄岛区王台镇环台东路天龙花园东,黄岛区,青岛市,1,[],4,http://api.map.baidu.com/place/detail?uid=92214d9372798c4da11de980&output=html&source=placeapi_v2,36.089992155917,120.02374519417,4.0,旅游景点;公园,scope,36.088625,120.023536,王台公园,山东省,,,92214d9372798c4da11de980
19,河套街道河套出口加工区,城阳区,青岛市,1,[],4,http://api.map.baidu.com/place/detail?uid=e5b86e6329229cdf96ec8415&output=html&source=placeapi_v2,36.229331202643,120.15473844192,2.8,旅游景点;公园,scope,36.228648,120.153557,滨湖公园,山东省,,,e5b86e6329229cdf96ec8415
,address,area,city,detail,children,comment_num,detail_url,lat,lng,overall_rating,tag,type,lat,lng,name,province,street_id,telephone,uid
0,青岛市即墨区蓝鳌路1433号,即墨区,青岛市,1,[],,http://api.map.baidu.com/place/detail?uid=ded8531cf160743296f08c40&output=html&source=placeapi_v2,,,,旅游景点;景点,scope,36.396083,120.429986,水上公园动物园,山东省,,,ded8531cf160743296f08c40
1,山东省青岛市市北区延吉路3-8号南60米,市北区,青岛市,1,[],,http://api.map.baidu.com/place/detail?uid=37d5bff8a1f3724aca1b954a&output=html&source=placeapi_v2,,,,旅游景点;公园,scope,36.091133,120.369565,健身公园,山东省,37d5bff8a1f3724aca1b954a,,37d5bff8a1f3724aca1b954a
2,青岛市莱西市龙口中路10号,莱西市,青岛市,1,[],,http://api.map.baidu.com/place/detail?uid=687c140ebb2a612b1d1d1152&output=html&source=placeapi_v2,,,,旅游景点;公园,scope,36.860541,120.539111,莱西洙河公园,山东省,,,687c140ebb2a612b1d1d1152
3,武夷山路255号,黄岛区,青岛市,1,[],,http://api.map.baidu.com/place/detail?uid=cc2dcd8f7eed2b0cb8bd636a&output=html&source=placeapi_v2,35.961487785052,120.19682759888,,旅游景点;公园,scope,35.961745,120.197593,武夷山路公园,山东省,cc2dcd8f7eed2b0cb8bd636a,,cc2dcd8f7eed2b0cb8bd636a
4,和兴路31号乙,市北区,青岛市,1,[],8,http://api.map.baidu.com/place/detail?uid=c8d34a50d571506be812e42d&output=html&source=placeapi_v2,,,4.2,旅游景点;公园,scope,36.091399,120.363185,洛克公园,山东省,c8d34a50d571506be812e42d,,c8d34a50d571506be812e42d
5,山东省青岛市黄岛区徐山公园(齐长城路北400米),黄岛区,青岛市,1,[],1,http://api.map.baidu.com/place/detail?uid=60cc4133cb5cdcded1f49ee4&output=html&source=placeapi_v2,35.994760845289,120.158457442,4.0,旅游景点;公园,scope,35.998328,120.157026,徐山生态园,山东省,,,60cc4133cb5cdcded1f49ee4
6,沽河道左岸,即墨区,青岛市,1,[],,http://api.map.baidu.com/place/detail?uid=e5bcd23c3dd151f87c29bdaa&output=html&source=placeapi_v2,,,,旅游景点;公园,scope,36.546816,120.155335,元宝湾公园,山东省,,,e5bcd23c3dd151f87c29bdaa
7,青岛市黄岛区城市阳台景区内,黄岛区,青岛市,1,[],1,http://api.map.baidu.com/place/detail?uid=c391d89c21eab5b2306212ac&output=html&source=placeapi_v2,35.869049134019,120.05824585065,5.0,旅游景点;公园,scope,35.866773,120.057255,会展公园,山东省,a83f0ca79d5f3667f90cadf5,,c391d89c21eab5b2306212ac
8,洋河镇艾山风景区,胶州市,青岛市,1,[],1,http://api.map.baidu.com/place/detail?uid=63641b2480abbba9ad080fb6&output=html&source=placeapi_v2,,,5.0,旅游景点;公园,scope,36.117049,119.92004,艾山风景名胜区-青岛城市星光公园,山东省,,18661664818,63641b2480abbba9ad080fb6
9,即墨区中国山东省青岛市即墨区嵩山二路666号,即墨区,青岛市,1,[],,http://api.map.baidu.com/place/detail?uid=8fde79ccd68f71be95ca072b&output=html&source=placeapi_v2,36.399586711849,120.43640389615,0.0,旅游景点;公园,scope,36.399542,120.437251,元宝湖公园,山东省,8fde79ccd68f71be95ca072b,(0532)87061322,8fde79ccd68f71be95ca072b
10,东海一路10甲附近,市南区,青岛市,1,[],,http://api.map.baidu.com/place/detail?uid=de55abd553f9afa93b221c94&output=html&source=placeapi_v2,,,,旅游景点;公园,scope,36.066061,120.37297,同心公园,山东省,de55abd553f9afa93b221c94,,de55abd553f9afa93b221c94
11,嵩山二路与振华街交叉口东北100米,即墨区,青岛市,1,[],,http://api.map.baidu.com/place/detail?uid=e7b33bf7adfa30f71ef74ddd&output=html&source=placeapi_v2,,,0.0,旅游景点;公园,scope,36.393462,120.436538,乐业游园,山东省,e7b33bf7adfa30f71ef74ddd,,e7b33bf7adfa30f71ef74ddd
12,金水路700号附近,李沧区,青岛市,1,[],1,http://api.map.baidu.com/place/detail?uid=20b7a147fd6abc802d4733c5&output=html&source=placeapi_v2,,,2.0,旅游景点;公园,scope,36.182188,120.448279,李沧区健康主题公园,山东省,20b7a147fd6abc802d4733c5,,20b7a147fd6abc802d4733c5
13,青岛市莱西市,莱西市,青岛市,1,[],1,http://api.map.baidu.com/place/detail?uid=d61ff0c17ebf97e2ebe58249&output=html&source=placeapi_v2,36.968879568001,120.47119356806,3.0,旅游景点,scope,36.968872,120.471065,青岛千禧湖植物园,山东省,,,d61ff0c17ebf97e2ebe58249
14,台镇卧龙山庄,李沧区,青岛市,1,[],,http://api.map.baidu.com/place/detail?uid=49ed195bfaf60b6cf6c59ce8&output=html&source=placeapi_v2,,,,旅游景点;动物园,scope,36.204995,120.496621,百鸟园,山东省,49ed195bfaf60b6cf6c59ce8,,49ed195bfaf60b6cf6c59ce8
15,合川路与衡水路交叉口东南100米,李沧区,青岛市,1,[],,http://api.map.baidu.com/place/detail?uid=bb6efb051343fa284002455d&output=html&source=placeapi_v2,36.169919369456,120.46532005587,,旅游景点;公园,scope,36.169606,120.465843,中心湿地,山东省,bb6efb051343fa284002455d,,bb6efb051343fa284002455d
16,青岛市城阳区国城路75号附近,城阳区,青岛市,1,[],,http://api.map.baidu.com/place/detail?uid=7b278479ef7dbccc8e772744&output=html&source=placeapi_v2,,,,旅游景点;公园,scope,36.323059,120.420333,万科春阳滨水公园,山东省,7b278479ef7dbccc8e772744,,7b278479ef7dbccc8e772744
17,青岛市胶州市河西郭村鑫鑫快餐对面附近,胶州市,青岛市,1,[],,http://api.map.baidu.com/place/detail?uid=9b7c4b34f4a49764d4851f8a&output=html&source=placeapi_v2,,,,旅游景点;植物园,scope,36.081835,119.946165,天香牡丹园,山东省,,,9b7c4b34f4a49764d4851f8a
18,青岛市城阳区,城阳区,青岛市,1,[],,http://api.map.baidu.com/place/detail?uid=45560eb8d00e79532e473352&output=html&source=placeapi_v2,,,,旅游景点,scope,36.295615,120.279239,沐涵汀多肉植物园,山东省,,,45560eb8d00e79532e473352
19,山东省青岛市莱西市锦绣公园(莱西市姜山镇政府北),莱西市,青岛市,1,[],2,http://api.map.baidu.com/place/detail?uid=5c2dc21dd17bd4056fc02c06&output=html&source=placeapi_v2,36.679516504377,120.53279698302,5.0,旅游景点;公园,scope,36.67951,120.532348,锦绣公园,山东省,,,5c2dc21dd17bd4056fc02c06
,address,area,city,detail,children,comment_num,detail_url,lat,lng,overall_rating,tag,type,lat,lng,name,province,street_id,telephone,uid
0,燕儿岛路45号,市南区,青岛市,1,[],,http://api.map.baidu.com/place/detail?uid=ca4f2e9e776e3247c356ac81&output=html&source=placeapi_v2,,,0.0,旅游景点;景点,scope,36.079794,120.408996,逍遥亭,山东省,ca4f2e9e776e3247c356ac81,(0532)83680999,ca4f2e9e776e3247c356ac81
1,青岛市崂山区东南蟠桃峰下崂山太清宫内,崂山区,青岛市,1,[],,http://api.map.baidu.com/place/detail?uid=6279a112e5f5f1deb05c6ac1&output=html&source=placeapi_v2,,,0.0,旅游景点;景点,scope,36.144674,120.682409,崂山太清宫-植物园,山东省,,,6279a112e5f5f1deb05c6ac1
2,山东省青岛市市北区海泊人家西北(青岛市海慈医院东),市北区,青岛市,1,[],,http://api.map.baidu.com/place/detail?uid=8dfb0c28abe9b5e08715419f&output=html&source=placeapi_v2,,,,旅游景点;景点,scope,36.100224,120.367883,海泊枫情园,山东省,8dfb0c28abe9b5e08715419f,,8dfb0c28abe9b5e08715419f
3,铜川路与龙水路交叉口东北200米,李沧区,青岛市,1,[],,http://api.map.baidu.com/place/detail?uid=09f0e345d6b3d2bb03ff2d40&output=html&source=placeapi_v2,36.184378211967,120.46219965514,0.0,旅游景点;公园,scope,36.184257,120.462073,金水桥公园,山东省,09f0e345d6b3d2bb03ff2d40,,09f0e345d6b3d2bb03ff2d40
4,青岛市黄岛区吾悦广场A区五楼5041,黄岛区,青岛市,1,[],1,http://api.map.baidu.com/place/detail?uid=eabbe7539748a9ce3310af14&output=html&source=placeapi_v2,,,5.0,旅游景点;公园,scope,35.93405,120.170784,维拓体育公园(青岛店),山东省,,(0532)55585095,eabbe7539748a9ce3310af14
5,山东省青岛市市南区香港西路32号,市南区,青岛市,1,[],,http://api.map.baidu.com/place/detail?uid=1cac8823097692c240e19228&output=html&source=placeapi_v2,,,,旅游景点;公园,scope,36.060998,120.369509,市南社区管理服务中心八大关街道太平角社区,山东省,1cac8823097692c240e19228,"(0532)83898850,(0532)68629780",1cac8823097692c240e19228
6,山东省青岛市黄岛区漓江西路674号唐岛湾景区内,黄岛区,青岛市,1,[],,http://api.map.baidu.com/place/detail?uid=1fa05d11e502d89943afe61d&output=html&source=placeapi_v2,35.952506674951,120.20312912849,,旅游景点;公园,scope,35.95209,120.205313,公共艺术园,山东省,1fa05d11e502d89943afe61d,,1fa05d11e502d89943afe61d
7,山东省青岛市黄岛区六汪镇小沟村,黄岛区,青岛市,1,[],,http://api.map.baidu.com/place/detail?uid=1f1303172d52eca5a6da39e7&output=html&source=placeapi_v2,,,,旅游景点;植物园,scope,35.963191,119.829688,丰佳园生态农业观光园,山东省,,(0532)86876007,1f1303172d52eca5a6da39e7
8,山东省青岛市李沧区顺河路利客来李村公园望海楼,李沧区,青岛市,1,[],2,http://api.map.baidu.com/place/detail?uid=93cebbdacce69e6a8c77276a&output=html&source=placeapi_v2,36.174431943238,120.42612107742,5.0,旅游景点;景点,scope,36.173911,120.426479,文圣堂,山东省,93cebbdacce69e6a8c77276a,,93cebbdacce69e6a8c77276a
9,东湖路北100米,莱西市,青岛市,1,[],1,http://api.map.baidu.com/place/detail?uid=bce13094d563ba29d42ce29d&output=html&source=placeapi_v2,36.936614742705,120.46244664873,4.0,旅游景点;公园,scope,36.937252,120.462515,西山公园,山东省,,,bce13094d563ba29d42ce29d
10,同安路264号附近,崂山区,青岛市,1,[],1,http://api.map.baidu.com/place/detail?uid=9ef50032ed72c06ce5e965e9&output=html&source=placeapi_v2,,,4.0,旅游景点;公园,scope,36.114665,120.449038,法治文化公园,山东省,9ef50032ed72c06ce5e965e9,,9ef50032ed72c06ce5e965e9
11,青岛市黄岛区台东路43号,黄岛区,青岛市,1,[],,http://api.map.baidu.com/place/detail?uid=04fb5583ebb6ec8d455726d7&output=html&source=placeapi_v2,,,,旅游景点;公园,scope,35.876086,120.015846,海洋科普公园,山东省,04fb5583ebb6ec8d455726d7,,04fb5583ebb6ec8d455726d7
12,山东省青岛市黄岛区珠山路天福小区西门,黄岛区,青岛市,1,[],,http://api.map.baidu.com/place/detail?uid=508500ada733235dd81318e4&output=html&source=placeapi_v2,,,,旅游景点;公园,scope,35.891064,119.991963,小型公园,山东省,,,508500ada733235dd81318e4
13,海城路7号,黄岛区,青岛市,1,[],2,http://api.map.baidu.com/place/detail?uid=eef2d528ef8214a63be4a665&output=html&source=placeapi_v2,35.694683659356,119.86390916477,3.0,旅游景点;公园,scope,35.694959,119.8639,徐福公园,山东省,,,eef2d528ef8214a63be4a665
14,山东省青岛市胶州市胶东镇渔乐湖小区南侧,胶州市,青岛市,1,[],,http://api.map.baidu.com/place/detail?uid=8e2006c2b0b0e88616a19070&output=html&source=placeapi_v2,,,,旅游景点;公园,scope,36.312149,120.114376,胶东食品药品文化公园,山东省,,,8e2006c2b0b0e88616a19070
15,枯桃村原409医院西侧,崂山区,青岛市,1,[],,http://api.map.baidu.com/place/detail?uid=b412f5328cc88eeff942b276&output=html&source=placeapi_v2,36.153988649262,120.51063432724,,旅游景点;植物园,scope,36.153921,120.51067,青岛天运仙城多肉植物园,山东省,b412f5328cc88eeff942b276,,b412f5328cc88eeff942b276
16,福州北路与莱州路交叉口西北100米,胶州市,青岛市,1,[],1,http://api.map.baidu.com/place/detail?uid=4ffce130c80d43dd3686f499&output=html&source=placeapi_v2,36.316534518049,120.02215217421,3.0,旅游景点;公园,scope,36.316932,120.022076,市北秧歌公园,山东省,4ffce130c80d43dd3686f499,,4ffce130c80d43dd3686f499
17,山东省青岛市崂山区滨海大道,崂山区,青岛市,1,[],,http://api.map.baidu.com/place/detail?uid=96407e4b2a13ed654151c039&output=html&source=placeapi_v2,,,,旅游景点;植物园,scope,36.156826,120.496446,世园会崂山区分会场,山东省,96407e4b2a13ed654151c039,(0532)88611587,96407e4b2a13ed654151c039
18,七宝山路49号,黄岛区,青岛市,1,[],,http://api.map.baidu.com/place/detail?uid=cc0e6d8122bf612296f08c38&output=html&source=placeapi_v2,36.008663741082,119.90637110145,0.0,旅游景点;公园,scope,36.008595,119.906207,宝山公园,山东省,,,cc0e6d8122bf612296f08c38
19,山东省青岛市莱西市南墅公园(山秀路北),莱西市,青岛市,1,[],,http://api.map.baidu.com/place/detail?uid=e85e25277681a15295f08c01&output=html&source=placeapi_v2,,,0.0,旅游景点;公园,scope,37.023755,120.341275,南墅公园,山东省,,,e85e25277681a15295f08c01
,address,area,city,detail,children,comment_num,detail_url,image_num,lat,lng,overall_rating,tag,type,lat,lng,name,province,street_id,uid
0,山东省青岛市李沧区天水路,李沧区,青岛市,1,[],,http://api.map.baidu.com/place/detail?uid=3a5b9f2fb5b5916d0b69d9ee&output=html&source=placeapi_v2,,,,0.0,旅游景点;植物园,scope,36.203669,120.493369,花卉园,山东省,3a5b9f2fb5b5916d0b69d9ee,3a5b9f2fb5b5916d0b69d9ee
1,山东省青岛市李沧区涞水路与熙春路交叉口东南150米,李沧区,青岛市,1,[],,http://api.map.baidu.com/place/detail?uid=b260e1a6011c85cc0b1cc74e&output=html&source=placeapi_v2,,36.199087043791,120.50643372671,,旅游景点;公园,scope,36.199731,120.506674,济南园,山东省,,b260e1a6011c85cc0b1cc74e
2,龙盛一路,莱西市,青岛市,1,[],0,http://api.map.baidu.com/place/detail?uid=dffd631c19c82abd38221c01&output=html&source=placeapi_v2,,36.848418128388,120.53730843408,0.0,旅游景点;公园,scope,36.849091,120.537317,龙海公园,山东省,dffd631c19c82abd38221c01,dffd631c19c82abd38221c01
3,青岛动物园西区内,市南区,青岛市,1,[],7,http://api.map.baidu.com/place/detail?uid=ac99fe5e83e4e8502fb90840&output=html&source=placeapi_v2,,,,4.6,旅游景点;景点,scope,36.07593,120.35529,猿猴馆,山东省,ac99fe5e83e4e8502fb90840,ac99fe5e83e4e8502fb90840
4,山东省青岛市黄岛区凤鸣岛街与斋堂岛街交叉口北50米,黄岛区,青岛市,1,[],,http://api.map.baidu.com/place/detail?uid=3abb1589929cab879fec2b34&output=html&source=placeapi_v2,,36.054010625152,120.22241625982,,旅游景点;公园,scope,36.054046,120.222374,小公园,山东省,3abb1589929cab879fec2b34,3abb1589929cab879fec2b34
5,山东省青岛市黄岛区大珠山中路康大金海园小区东50米,黄岛区,青岛市,1,[],,http://api.map.baidu.com/place/detail?uid=c7a569cb7e3cde7406fef5b6&output=html&source=placeapi_v2,,35.876169238424,120.0226814612,,旅游景点;公园,scope,35.87624,120.022226,上海路市民运动公园,山东省,c7a569cb7e3cde7406fef5b6,c7a569cb7e3cde7406fef5b6
6,丰原路3-32,崂山区,青岛市,1,[],,http://api.map.baidu.com/place/detail?uid=dc5c45739766ac92b8bd63f2&output=html&source=placeapi_v2,,,,0.0,旅游景点;公园,scope,36.068694,120.430151,和乐园,山东省,dc5c45739766ac92b8bd63f2,dc5c45739766ac92b8bd63f2
7,青岛市市南区文登路28号青岛中山公园内,市南区,青岛市,1,[],,http://api.map.baidu.com/place/detail?uid=f783df1a1d946a7797031992&output=html&source=placeapi_v2,,36.068784554839,120.36074706551,,旅游景点;景点,scope,36.068795,120.360814,适生植物花园,山东省,f783df1a1d946a7797031992,f783df1a1d946a7797031992
8,大港纬一路与普集支路交叉口东50米,市北区,青岛市,1,[],,http://api.map.baidu.com/place/detail?uid=6090e1080fc1abfc725e802a&output=html&source=placeapi_v2,,,,,旅游景点;公园,scope,36.092861,120.341095,普集支路街心公园,山东省,6090e1080fc1abfc725e802a,6090e1080fc1abfc725e802a
9,山东省青岛市黄岛区松云路211号,黄岛区,青岛市,1,[],1,http://api.map.baidu.com/place/detail?uid=1f78633f2569d57607fef5ed&output=html&source=placeapi_v2,,,,5.0,旅游景点;公园,scope,35.805582,119.927933,石岭河公园,山东省,,1f78633f2569d57607fef5ed
10,明月路与海西路交叉口东100米,黄岛区,青岛市,1,[],0,http://api.map.baidu.com/place/detail?uid=db0fcb3be72eec82a11de9bb&output=html&source=placeapi_v2,,35.87133915722,119.96642718157,0.0,旅游景点;公园,scope,35.871558,119.96641,肖家庄橡树林公园,山东省,db0fcb3be72eec82a11de9bb,db0fcb3be72eec82a11de9bb
11,山东省青岛市市北区吉林支路7号西70米,市北区,青岛市,1,[],,http://api.map.baidu.com/place/detail?uid=65aeb507576cf28685420e93&output=html&source=placeapi_v2,,,,,旅游景点;植物园,scope,36.087808,120.342311,科普植物园,山东省,65aeb507576cf28685420e93,65aeb507576cf28685420e93
12,山东省青岛市市北区浦口路24号附近,市北区,青岛市,1,[],1,http://api.map.baidu.com/place/detail?uid=f50847853bf61087f32d83ee&output=html&source=placeapi_v2,,,,4.0,旅游景点;公园,scope,36.099856,120.364346,市北区法治文化主题公园,山东省,f50847853bf61087f32d83ee,f50847853bf61087f32d83ee
13,上海中路21号,莱西市,青岛市,1,[],1,http://api.map.baidu.com/place/detail?uid=9b8c9a005e929fbb0d3dda19&output=html&source=placeapi_v2,2,36.888276338787,120.53216870275,0.0,休闲娱乐;休闲广场,life,36.889351,120.531704,缤纷广场,山东省,9b8c9a005e929fbb0d3dda19,9b8c9a005e929fbb0d3dda19
14,八大关街道青岛动物园,市南区,青岛市,1,[],4,http://api.map.baidu.com/place/detail?uid=e062a29241d297e3db131838&output=html&source=placeapi_v2,,,,4.8,旅游景点;景点,scope,36.074727,120.355999,鸣禽馆,山东省,e062a29241d297e3db131838,e062a29241d297e3db131838
15,山东省青岛市市南区鱼山路1-丙附近,市南区,青岛市,1,[],,http://api.map.baidu.com/place/detail?uid=07187e964ccc13605a3ac8dc&output=html&source=placeapi_v2,,,,,旅游景点;公园,scope,36.064245,120.343065,小三角公园,山东省,07187e964ccc13605a3ac8dc,07187e964ccc13605a3ac8dc
16,青岛动物园西区内,市南区,青岛市,1,[],4,http://api.map.baidu.com/place/detail?uid=6df3bee69de187521d580007&output=html&source=placeapi_v2,,36.073271199354,120.35330741695,4.0,旅游景点;动物园,scope,36.073401,120.354405,百鸟笼,山东省,6df3bee69de187521d580007,6df3bee69de187521d580007
17,山东省青岛市莱西市人口文化主题公园(重庆中路北),莱西市,青岛市,1,[],,http://api.map.baidu.com/place/detail?uid=3e79317354481836e6e96581&output=html&source=placeapi_v2,,,,,旅游景点;公园,scope,36.888779,120.531583,人口文化主题公园,山东省,,3e79317354481836e6e96581
18,山东省青岛市平度市S217,平度市,青岛市,1,[],,http://api.map.baidu.com/place/detail?uid=b5e91c9d496be9fefb221349&output=html&source=placeapi_v2,,,,0.0,旅游景点;公园,scope,37.000717,120.213068,旧店公园,山东省,,b5e91c9d496be9fefb221349
19,青岛动物园西区内,市北区,青岛市,1,[],3,http://api.map.baidu.com/place/detail?uid=fceb225346dd0ecb4207c193&output=html&source=placeapi_v2,,36.076676390282,120.35546414248,4.0,旅游景点;景点,scope,36.077681,120.354817,鹿苑,山东省,fceb225346dd0ecb4207c193,fceb225346dd0ecb4207c193
,address,area,city,detail,children,comment_num,detail_url,image_num,lat,lng,overall_rating,tag,type,lat,lng,name,province,street_id,telephone,uid
0,山东省青岛市市南区澳门路海风园(青岛世界贸易中心东南),市南区,青岛市,1,[],1,http://api.map.baidu.com/place/detail?uid=54439d8d84080d7eb6147fc7&output=html&source=placeapi_v2,,36.066047502588,120.38583911801,5.0,旅游景点;公园,scope,36.066357,120.385515,海风园,山东省,54439d8d84080d7eb6147fc7,,54439d8d84080d7eb6147fc7
1,康宁路1号,市北区,青岛市,1,[],1,http://api.map.baidu.com/place/detail?uid=49f858edf9d0eaba4f3a59df&output=html&source=placeapi_v2,,36.104539697225,120.36259939393,4.0,旅游景点;公园,scope,36.103728,120.362465,青岛消防文化主题公园,山东省,49f858edf9d0eaba4f3a59df,(0532)83716454,49f858edf9d0eaba4f3a59df
2,青岛市市南区南区琴屿路小青岛景区内,市南区,青岛市,1,[],,http://api.map.baidu.com/place/detail?uid=647a1a16df35d1e8cf06a488&output=html&source=placeapi_v2,,,,,旅游景点;景点,scope,36.05829,120.330196,贝壳亭,山东省,647a1a16df35d1e8cf06a488,,647a1a16df35d1e8cf06a488
3,山东省青岛市李沧区天水路世界园艺博览会宝岛风情园,李沧区,青岛市,1,[],,http://api.map.baidu.com/place/detail?uid=44caa4f3244a4f393586f43a&output=html&source=placeapi_v2,,,,,旅游景点;公园,scope,36.204767,120.507475,宝岛风情园,山东省,44caa4f3244a4f393586f43a,,44caa4f3244a4f393586f43a
4,北京西路与广州路交叉口东北50米,莱西市,青岛市,1,[],,http://api.map.baidu.com/place/detail?uid=d9233d33492d60f1d92f28e0&output=html&source=placeapi_v2,,,,,旅游景点;公园,scope,36.893095,120.511223,中凯运动公园,山东省,,,d9233d33492d60f1d92f28e0
5,西崖村387号,平度市,青岛市,1,[],0,http://api.map.baidu.com/place/detail?uid=00f1c7fbecdcf01ec056ac43&output=html&source=placeapi_v2,,37.001550629331,119.95679381078,0.0,旅游景点;公园,scope,37.001446,119.956726,泽山湖公园,山东省,,,00f1c7fbecdcf01ec056ac43
6,青岛动物园东区内,市北区,青岛市,1,[],5,http://api.map.baidu.com/place/detail?uid=cb1758585b85690b2bb97c04&output=html&source=placeapi_v2,,36.076372492775,120.35772312572,3.4,旅游景点;景点,scope,36.076189,120.358591,豹馆,山东省,cb1758585b85690b2bb97c04,(0532)82879909,cb1758585b85690b2bb97c04
7,青云山路508号附近,黄岛区,青岛市,1,[],,http://api.map.baidu.com/place/detail?uid=3e7e87435afea92d471a3215&output=html&source=placeapi_v2,,,,,旅游景点;公园,scope,35.965458,120.228209,儿童主题公园,山东省,3e7e87435afea92d471a3215,,3e7e87435afea92d471a3215
8,青岛市黄岛区经济开发区小珠山国家森林公园风景区青岛森林野生动物世界猛兽区内,黄岛区,青岛市,1,[],,http://api.map.baidu.com/place/detail?uid=bf4f63441bd16218276e98b6&output=html&source=placeapi_v2,,,,,旅游景点;景点,scope,35.986942,120.066712,金钱豹,山东省,,,bf4f63441bd16218276e98b6
9,青岛动物园西区内,市南区,青岛市,1,[],3,http://api.map.baidu.com/place/detail?uid=f5655fd4eaf28006095cb331&output=html&source=placeapi_v2,,36.076452231707,120.35515529696,4.7,旅游景点;动物园,scope,36.076878,120.354931,骆驼苑,山东省,f5655fd4eaf28006095cb331,(0532)82879909,f5655fd4eaf28006095cb331
10,青岛动物园西区内,市南区,青岛市,1,[],5,http://api.map.baidu.com/place/detail?uid=dea81cfa51b298067c29bd50&output=html&source=placeapi_v2,,,,4.8,旅游景点;景点,scope,36.076749,120.356217,小型动物展区,山东省,dea81cfa51b298067c29bd50,,dea81cfa51b298067c29bd50
11,青岛市市南区文登路28号青岛中山公园内,市南区,青岛市,1,[],7,http://api.map.baidu.com/place/detail?uid=a79901f9ed5be9f00bb93a78&output=html&source=placeapi_v2,,36.069585601546,120.35086343667,5.0,旅游景点;景点,scope,36.069066,120.352096,孙文莲池,山东省,a79901f9ed5be9f00bb93a78,,a79901f9ed5be9f00bb93a78
12,山东省青岛市李沧区天水路世界园艺博览会梨树坡,李沧区,青岛市,1,[],,http://api.map.baidu.com/place/detail?uid=36c60298fa88b4a2b75f1e74&output=html&source=placeapi_v2,,,,0.0,旅游景点;景点,scope,36.204909,120.506792,佛光园,山东省,36c60298fa88b4a2b75f1e74,,36c60298fa88b4a2b75f1e74
13,青岛市市南区文登路28号青岛中山公园内,市南区,青岛市,1,[],2,http://api.map.baidu.com/place/detail?uid=de3c3d958471e40158f6bee9&output=html&source=placeapi_v2,,36.073671324771,120.35649581851,4.0,旅游景点;景点,scope,36.071714,120.354557,山海泉韵,山东省,de3c3d958471e40158f6bee9,(0532)82870564,de3c3d958471e40158f6bee9
14,青岛市市南区文登路28号青岛中山公园内,市南区,青岛市,1,[],2,http://api.map.baidu.com/place/detail?uid=c6de44edca825e6207fef57a&output=html&source=placeapi_v2,,36.070122782247,120.35177722268,5.0,旅游景点;景点,scope,36.070109,120.351719,青岛中山公园-亭子,山东省,c6de44edca825e6207fef57a,,c6de44edca825e6207fef57a
15,埠惜路东50米,即墨区,青岛市,1,[],0,http://api.map.baidu.com/place/detail?uid=15e1e85eec9ebaa35810932b&output=html&source=placeapi_v2,,36.376014888057,120.50897977245,0.0,旅游景点;植物园,scope,36.37416,120.510852,青岛市农业生态观光园,山东省,15e1e85eec9ebaa35810932b,,15e1e85eec9ebaa35810932b
16,振华街95号,即墨区,青岛市,1,[],,http://api.map.baidu.com/place/detail?uid=f56afbb7b5158f4cd6b74e20&output=html&source=placeapi_v2,6,36.393568957504,120.44294852969,0.0,休闲娱乐;休闲广场,life,36.393709,120.44288,安居广场,山东省,f56afbb7b5158f4cd6b74e20,,f56afbb7b5158f4cd6b74e20
17,山东省青岛市李沧区李村商圈虎山路22号附近,李沧区,青岛市,1,[],,http://api.map.baidu.com/place/detail?uid=458c2b79390a9ef1b320a8d0&output=html&source=placeapi_v2,,,,,旅游景点;公园,scope,36.177301,120.428255,东方公园,山东省,458c2b79390a9ef1b320a8d0,,458c2b79390a9ef1b320a8d0
18,山东省青岛市李沧区天水路世界园艺博览会宝岛风情园附近,李沧区,青岛市,1,[],,http://api.map.baidu.com/place/detail?uid=9ea3e2575de1dec86b49f308&output=html&source=placeapi_v2,,,,0.0,旅游景点;景点,scope,36.20423,120.507305,英国农舍园,山东省,9ea3e2575de1dec86b49f308,,9ea3e2575de1dec86b49f308
19,山东省青岛市黄岛区东风路2号附近,黄岛区,青岛市,1,[],,http://api.map.baidu.com/place/detail?uid=1b4528d346ebad4925d2bbf0&output=html&source=placeapi_v2,,,,,旅游景点,scope,35.874974,119.99026,健康主题公园,山东省,1b4528d346ebad4925d2bbf0,,1b4528d346ebad4925d2bbf0
,address,area,city,detail,children,comment_num,detail_url,lat,lng,overall_rating,tag,type,lat,lng,name,province,street_id,uid
0,山东省青岛市李沧区安冬路,李沧区,青岛市,1,[],,http://api.map.baidu.com/place/detail?uid=38e8f930d832ce5d17b54b3f&output=html&source=placeapi_v2,36.204864098923,120.50189935268,0.0,旅游景点;植物园,scope,36.203329,120.501509,绿叶园,山东省,38e8f930d832ce5d17b54b3f,38e8f930d832ce5d17b54b3f
1,青岛市李沧区天水路17号上流家园A区西大门,李沧区,青岛市,1,[],,http://api.map.baidu.com/place/detail?uid=1617282f1c4ccfda2ad7ab59&output=html&source=placeapi_v2,,,,旅游景点;景点,scope,36.209665,120.511673,激情建世园,山东省,1617282f1c4ccfda2ad7ab59,1617282f1c4ccfda2ad7ab59
2,山东省青岛市即墨区烟青路(青岛即墨针织三厂附近),即墨区,青岛市,1,[],1,http://api.map.baidu.com/place/detail?uid=8062287bcd4b6c96f8221394&output=html&source=placeapi_v2,,,0.0,旅游景点;公园,scope,36.408359,120.463531,公园美术社,山东省,8062287bcd4b6c96f8221394,8062287bcd4b6c96f8221394
3,涞水路与熙春路交叉口南100米,李沧区,青岛市,1,[],,http://api.map.baidu.com/place/detail?uid=410f9d692ba997ab3ce23165&output=html&source=placeapi_v2,,,0.0,旅游景点;植物园,scope,36.1996,120.505825,青岛世博园景区-中华园福建园,山东省,410f9d692ba997ab3ce23165,410f9d692ba997ab3ce23165
